        {lat: 15.365051, lng: 101.375121, nation:"태국"},		//태국
        {lat: 19.299296, lng: 97.964767, city:"매홍손"},		//매홍손
        {lat: 13.757395, lng: 100.493124, city:"방콕"},			//방콕
        {lat: 18.703561, lng: 98.971862, city:"치앙마이"},		//치앙마이
        {lat: 9.512229, lng: 100.012985, city:"코사무이"},		//코사무이
        {lat: 12.920246, lng: 100.877989, city:"파타야"},		//파타야
        {lat: 7.952094, lng: 98.338094, city:"푸켓"},			//푸켓
        {lat: 12.572202, lng: 99.955281, city:"후아힌"},		//후아힌