        {lat: 46.848818, lng: 7.982429, nation:"스위스"},		//스위스
        {lat: 46.519661, lng: 6.632272, city:"로잔"},			//로잔
        {lat: 46.003691, lng: 8.951050, city:"루가노"},			//루가노
        {lat: 46.431232, lng: 6.910743, city:"몽트뢰"},			//몽트뢰
        {lat: 47.559609, lng: 7.588576, city:"바젤"},			//바젤
        {lat: 46.948010, lng: 7.447785, city:"베른"},			//베른
        {lat: 46.686469, lng: 7.863182, city:"인터라켄"},		//인터라켄
        {lat: 46.205015, lng: 6.142981, city:"제네바"},			//제네바
        {lat: 47.377894, lng: 8.540940, city:"취리히"},			//취리히