	{lat: 47.613526, lng: 14.120049, nation: "오스트리아"}, 	//오스트리아
	{lat: 47.070512, lng: 15.439549, city: "그랏츠"}, 		//그랏츠
	{lat: 48.208420, lng: 16.373486, city: "빈(비엔나)"},	 //빈
	{lat: 47.269090, lng: 11.404176, city: "인스브루크"}, 	//인스브루크
	{lat: 47.809113, lng: 13.054984, city: "잘츠부르크"}, 	//잘츠부르크
	{lat: 46.636484, lng: 14.312190, city: "클라겐푸르트"},	 //클라겐푸르트